[
  {"name":"Adirondack Golf & Country Club","lat":44.70294,"lng":-73.51347,"city":"Peru","county":"Clinton"},
  {"name":"Airway Meadows Golf Club","lat":43.22641,"lng":-73.70752,"city":"Gansevoort","county":"Saratoga"},
  {"name":"Albany Country Club","lat":42.65387,"lng":-73.86892,"city":"Voorheesville","county":"Albany"},
  {"name":"Apple Greens Golf Course","lat":41.73952,"lng":-74.07213,"city":"Highland","county":"Ulster"},
  {"name":"Arrowhead Golf Club","lat":43.02094,"lng":-78.63912,"city":"Akron","county":"Erie"},
  {"name":"Atunyote Golf Club","lat":42.98152,"lng":-75.44281,"city":"Verona","county":"Oneida"},
  {"name":"Barker Brook Golf Club","lat":42.92841,"lng":-75.50112,"city":"Oriskany Falls","county":"Oneida"},
  {"name":"Bath Country Club","lat":42.34312,"lng":-77.31741,"city":"Bath","county":"Steuben"},
  {"name":"Bay Park Golf Course","lat":40.63612,"lng":-73.65741,"city":"East Rockaway","county":"Nassau"},
  {"name":"Bay Shore Mini Golf","lat":40.72541,"lng":-73.24512,"city":"Bay Shore","county":"Suffolk"},
  {"name":"Bethpage Black Course","lat":40.74291,"lng":-73.45112,"city":"Farmingdale","county":"Nassau"},
  {"name":"Bethpage Blue Course","lat":40.74412,"lng":-73.45521,"city":"Farmingdale","county":"Nassau"},
  {"name":"Bethpage Green Course","lat":40.74492,"lng":-73.44891,"city":"Farmingdale","county":"Nassau"},
  {"name":"Bethpage Red Course","lat":40.74192,"lng":-73.45212,"city":"Farmingdale","county":"Nassau"},
  {"name":"Bethpage Yellow Course","lat":40.74612,"lng":-73.45412,"city":"Farmingdale","county":"Nassau"},
  {"name":"Big Oak Golf Course","lat":43.06412,"lng":-77.22641,"city":"Geneva","county":"Ontario"},
  {"name":"Blue Heron Hills Golf Club","lat":43.21412,"lng":-77.35012,"city":"Macedon","county":"Wayne"},
  {"name":"Brook-Lea Country Club","lat":43.15912,"lng":-77.73112,"city":"Rochester","county":"Monroe"},
  {"name":"Byrne Dairy Golf Course","lat":43.03012,"lng":-76.21741,"city":"Syracuse","county":"Onondaga"},
  {"name":"Cazenovia Country Club","lat":42.93312,"lng":-75.84741,"city":"Cazenovia","county":"Madison"},
  {"name":"Cedar Lake Club","lat":43.01012,"lng":-75.31012,"city":"Clayville","county":"Oneida"},
  {"name":"Century Country Club","lat":41.12912,"lng":-73.74912,"city":"Purchase","county":"Westchester"},
  {"name":"Cobblestone Creek Country Club","lat":43.03012,"lng":-77.45112,"city":"Victor","county":"Ontario"},
  {"name":"Colonial Springs Golf Club","lat":40.76312,"lng":-73.39112,"city":"Farmingdale","county":"Suffolk"},
  {"name":"Conklin Players Club","lat":42.03512,"lng":-75.80212,"city":"Conklin","county":"Broome"},
  {"name":"Crag Burn Golf Club","lat":42.77312,"lng":-78.64112,"city":"East Aurora","county":"Erie"},
  {"name":"Cranberry Valley Golf Course","lat":42.74312,"lng":-73.85112,"city":"Albany","county":"Albany"},
  {"name":"Cricket Hill Golf Club","lat":43.37312,"lng":-75.35112,"city":"Hinkley","county":"Oneida"},
  {"name":"Crooked Lake Golf Club","lat":42.61312,"lng":-73.35112,"city":"Averill Park","county":"Rensselaer"},
  {"name":"Deerfield Country Club","lat":43.18112,"lng":-77.74512,"city":"Brockport","county":"Monroe"},
  {"name":"Durand Eastman Golf Course","lat":43.23512,"lng":-77.55612,"city":"Rochester","county":"Monroe"},
  {"name":"Eagle Vale Golf Club","lat":43.09512,"lng":-77.44112,"city":"Fairport","county":"Monroe"},
  {"name":"En-Joie Golf Club","lat":42.10112,"lng":-76.05412,"city":"Endicott","county":"Broome"},
  {"name":"Fairport Country Club","lat":43.09512,"lng":-77.45112,"city":"Fairport","county":"Monroe"},
  {"name":"Genesee Valley Golf Course","lat":43.11812,"lng":-77.63512,"city":"Rochester","county":"Monroe"},
  {"name":"Golden Oaks Golf Club","lat":42.14312,"lng":-75.35112,"city":"Harpursville","county":"Broome"},
  {"name":"Green Lakes State Park Golf Course","lat":43.04412,"lng":-75.97112,"city":"Fayetteville","county":"Onondaga"},
  {"name":"Irondequoit Country Club","lat":43.14512,"lng":-77.52512,"city":"Rochester","county":"Monroe"},
  {"name":"Lakeshore Country Club","lat":43.24512,"lng":-77.55512,"city":"Rochester","county":"Monroe"},
  {"name":"Locust Hill Country Club","lat":43.09012,"lng":-77.51512,"city":"Pittsford","county":"Monroe"},
  {"name":"Mill Creek Golf Club","lat":42.98112,"lng":-77.75112,"city":"Churchville","county":"Monroe"},
  {"name":"Monroe Golf Club","lat":43.09012,"lng":-77.51512,"city":"Pittsford","county":"Monroe"},
  {"name":"Oak Hill Country Club (East)","lat":43.10012,"lng":-77.51512,"city":"Rochester","county":"Monroe"},
  {"name":"Oak Hill Country Club (West)","lat":43.10212,"lng":-77.51812,"city":"Rochester","county":"Monroe"},
  {"name":"Old Fort Niagara Golf Course","lat":43.26212,"lng":-79.06312,"city":"Youngstown","county":"Niagara"},
  {"name":"Penfield Country Club","lat":43.12812,"lng":-77.46712,"city":"Penfield","county":"Monroe"},
  {"name":"Ravenwood Golf Club","lat":42.98112,"lng":-77.45112,"city":"Victor","county":"Ontario"},
  {"name":"Ridgemont Country Club","lat":43.21512,"lng":-77.74512,"city":"Rochester","county":"Monroe"},
  {"name":"Rochester Golf Club","lat":43.14512,"lng":-77.62512,"city":"Rochester","county":"Monroe"},
  {"name":"Shadow Lake Golf Club","lat":43.14512,"lng":-77.44112,"city":"Penfield","county":"Monroe"},
  {"name":"Shadow Pines Golf Club","lat":43.14512,"lng":-77.43112,"city":"Penfield","county":"Monroe"},
  {"name":"The Links at Greystone","lat":43.09012,"lng":-77.35112,"city":"Walworth","county":"Wayne"},
  {"name":"Victor Hills Golf Club","lat":42.98112,"lng":-77.44112,"city":"Victor","county":"Ontario"},
  {"name":"Webster Golf Club (East)","lat":43.21812,"lng":-77.42912,"city":"Webster","county":"Monroe"},
  {"name":"Webster Golf Club (West)","lat":43.21812,"lng":-77.43912,"city":"Webster","county":"Monroe"},
  {"name":"Wild Wood Country Club","lat":43.18112,"lng":-77.65112,"city":"Rochester","county":"Monroe"},
  {"name":"Winged Pheasant Golf Links","lat":43.18112,"lng":-77.25112,"city":"Shortsville","county":"Ontario"}
]

